{
"type": "FeatureCollection",
"name": "wwtp_locations",
"crs": { "type": "name", "properties": { "name": "urn:ogc:def:crs:OGC:1.3:CRS84" } },
"features": [
{ "type": "Feature", "properties": { "name": "Jumeirah Palm", "id": 1, "elevation": 0.00054557004477828741, "discharge": 0.25115740740740738, "num_steps": 5 }, "geometry": { "type": "Point", "coordinates": [ 55.149648364518001, 25.136197627810699 ] } },
{ "type": "Feature", "properties": { "name": "JVC TSE Polishing Plant", "id": 2, "elevation": 6.0000705718994141, "discharge": 0.020833333333333332, "num_steps": 5 }, "geometry": { "type": "Point", "coordinates": [ 55.209470100126303, 25.060647841091001 ] } },
{ "type": "Feature", "properties": { "name": "Jebel Ali Phase I", "id": 3, "elevation": 52.001266479492188, "discharge": 3.4722222222222223, "num_steps": 5 }, "geometry": { "type": "Point", "coordinates": [ 55.235747189314402, 24.912011312578201 ] } },
{ "type": "Feature", "properties": { "name": "Jebel Ali Phase II", "id": 4, "elevation": 52.001266479492188, "discharge": 4.3402777777777777, "num_steps": 5 }, "geometry": { "type": "Point", "coordinates": [ 55.235747189314402, 24.912011312578201 ] } },
{ "type": "Feature", "properties": { "name": "Al Aweer (Wirsan)", "id": 5, "elevation": 40.0, "discharge": 1.5046296296296295, "num_steps": 5 }, "geometry": { "type": "Point", "coordinates": [ 55.431900708544802, 25.159666386014699 ] } },
{ "type": "Feature", "properties": { "name": "Al Aweer (Wirsan) extenssion 1", "id": 6, "elevation": 40.0, "discharge": 1.5046296296296295, "num_steps": 5 }, "geometry": { "type": "Point", "coordinates": [ 55.431900708544802, 25.159666386014699 ] } },
{ "type": "Feature", "properties": { "name": "Al Aweer CW", "id": 7, "elevation": 74.004669189453125, "discharge": 0.00028935185185185184, "num_steps": 5 }, "geometry": { "type": "Point", "coordinates": [ 55.544366255875197, 25.179346907246298 ] } },
{ "type": "Feature", "properties": { "name": "Hatta", "id": 8, "elevation": 307.0, "discharge": 0.017361111111111112, "num_steps": 5 }, "geometry": { "type": "Point", "coordinates": [ 56.1370603653545, 24.8045399009224 ] } },
{ "type": "Feature", "properties": { "name": "Business Bay 3", "id": 9, "elevation": 6.0, "discharge": 0.040509259259259259, "num_steps": 5 }, "geometry": { "type": "Point", "coordinates": [ 55.271110585793103, 25.190297305873599 ] } },
{ "type": "Feature", "properties": { "name": "Wafi Mall TSE Polishing", "id": 10, "elevation": 5.0, "discharge": 0.011574074074074073, "num_steps": 5 }, "geometry": { "type": "Point", "coordinates": [ 55.319180643281399, 25.229974959006402 ] } },
{ "type": "Feature", "properties": { "name": "Greens Residential Community", "id": 11, "elevation": 0.011996296234428883, "discharge": 0.11574074074074074, "num_steps": 5 }, "geometry": { "type": "Point", "coordinates": [ 55.171670203939698, 25.092237478123899 ] } },
{ "type": "Feature", "properties": { "name": " Dubai Al Ruwaya", "id": 12, "elevation": 71.0, "discharge": 0.046296296296296294, "num_steps": 5 }, "geometry": { "type": "Point", "coordinates": [ 55.480822124181103, 25.1609811869784 ] } },
{ "type": "Feature", "properties": { "name": "Lootah Ready Mix Facility", "id": 13, "elevation": 4.0048599243164062, "discharge": 0.013888888888888888, "num_steps": 5 }, "geometry": { "type": "Point", "coordinates": [ 55.1153593649735, 24.989318786287001 ] } },
{ "type": "Feature", "properties": { "name": "Hassyan Power Plant", "id": 14, "elevation": 1.0029439926147461, "discharge": 0.013888888888888888, "num_steps": 5 }, "geometry": { "type": "Point", "coordinates": [ 54.916026952738598, 24.911540911135301 ] } },
{ "type": "Feature", "properties": { "name": "Al Barari", "id": 15, "elevation": 24.00016975402832, "discharge": 0.1076388888888889, "num_steps": 5 }, "geometry": { "type": "Point", "coordinates": [ 55.319878281873699, 25.0988456532694 ] } },
{ "type": "Feature", "properties": { "name": "Dubai Investment Park", "id": 16, "elevation": 10.0, "discharge": 0.35879629629629628, "num_steps": 5 }, "geometry": { "type": "Point", "coordinates": [ 55.151328102176699, 24.994606916601299 ] } },
{ "type": "Feature", "properties": { "name": "DIP West", "id": 17, "elevation": 19.0, "discharge": 0.11574074074074074, "num_steps": 5 }, "geometry": { "type": "Point", "coordinates": [ 55.193322432332003, 24.9824614236766 ] } },
{ "type": "Feature", "properties": { "name": "Dubai Parks TSE Polishing", "id": 18, "elevation": 12.000049591064453, "discharge": 0.013888888888888888, "num_steps": 5 }, "geometry": { "type": "Point", "coordinates": [ 54.982329572480303, 24.9166506045805 ] } },
{ "type": "Feature", "properties": { "name": "Dubai Police TSE Polishing RO", "id": 19, "elevation": 3.0005249977111816, "discharge": 0.003472222222222222, "num_steps": 5 }, "geometry": { "type": "Point", "coordinates": [ 55.2690965685753, 25.207641231115701 ] } },
{ "type": "Feature", "properties": { "name": "Jebel Ali Hazardous Waste Treatment Facility", "id": 20, "elevation": 32.0, "discharge": 0.0069444444444444441, "num_steps": 5 }, "geometry": { "type": "Point", "coordinates": [ 55.077660813256401, 24.934701368864001 ] } },
{ "type": "Feature", "properties": { "name": "JAFZA (8000 m3/d)", "id": 21, "elevation": 9.0046672821044922, "discharge": 0.092592592592592587, "num_steps": 5 }, "geometry": { "type": "Point", "coordinates": [ 55.086146096575803, 24.950207264239499 ] } },
{ "type": "Feature", "properties": { "name": "JAFZA (1000 m3/d)", "id": 22, "elevation": 6.0, "discharge": 0.011574074074074073, "num_steps": 5 }, "geometry": { "type": "Point", "coordinates": [ 55.096924181550797, 24.980562275933401 ] } },
{ "type": "Feature", "properties": { "name": "JAFZA One STP", "id": 23, "elevation": 7.0, "discharge": 0.0041666666666666666, "num_steps": 5 }, "geometry": { "type": "Point", "coordinates": [ 55.076295603023702, 24.962633240533801 ] } },
{ "type": "Feature", "properties": { "name": "JAFZA Staff Accommodation", "id": 24, "elevation": 24.002586364746094, "discharge": 0.0086805555555555559, "num_steps": 5 }, "geometry": { "type": "Point", "coordinates": [ 55.115417015284201, 24.942599652196499 ] } },
{ "type": "Feature", "properties": { "name": "JAFZA  Labour Camp", "id": 25, "elevation": 6.0000500679016113, "discharge": 0.032986111111111112, "num_steps": 5 }, "geometry": { "type": "Point", "coordinates": [ 55.100844353120301, 25.0001092338284 ] } },
{ "type": "Feature", "properties": { "name": "Hyatt Regency", "id": 26, "elevation": 5.0, "discharge": 0.0035416666666666665, "num_steps": 5 }, "geometry": { "type": "Point", "coordinates": [ 55.321939184786302, 25.2349548241721 ] } },
{ "type": "Feature", "properties": { "name": "Downtown Dubai Development - TSE RO Polishing Plant", "id": 27, "elevation": 4.0, "discharge": 0.23148148148148148, "num_steps": 5 }, "geometry": { "type": "Point", "coordinates": [ 55.278223911060103, 25.1959983102095 ] } },
{ "type": "Feature", "properties": { "name": "Jumeirah Golf Estates STP", "id": 28, "elevation": 4.0, "discharge": 1.2731481481481481, "num_steps": 5 }, "geometry": { "type": "Point", "coordinates": [ 55.173680886776999, 25.0296823320672 ] } },
{ "type": "Feature", "properties": { "name": "Deira Islands STP", "id": 29, "elevation": 0.0021958993747830391, "discharge": 0.42824074074074076, "num_steps": 5 }, "geometry": { "type": "Point", "coordinates": [ 55.318662612014002, 25.298944183105299 ] } },
{ "type": "Feature", "properties": { "name": "Reem Development Phase 1 - WWTP", "id": 30, "elevation": 3.000241756439209, "discharge": 0.069444444444444448, "num_steps": 5 }, "geometry": { "type": "Point", "coordinates": [ 55.272727282588498, 25.1962531220729 ] } },
{ "type": "Feature", "properties": { "name": "Emicool TSE Polishing", "id": 31, "elevation": 8.0004730224609375, "discharge": 0.033564814814814818, "num_steps": 5 }, "geometry": { "type": "Point", "coordinates": [ 55.151027139588301, 24.970865825569199 ] } },
{ "type": "Feature", "properties": { "name": "Silicon Park TSE Polishing", "id": 32, "elevation": 22.004188537597656, "discharge": 0.011111111111111112, "num_steps": 5 }, "geometry": { "type": "Point", "coordinates": [ 55.385082683548802, 25.121890480010499 ] } },
{ "type": "Feature", "properties": { "name": "Town Square TSE Polishing", "id": 33, "elevation": 31.000360488891602, "discharge": 0.018518518518518517, "num_steps": 5 }, "geometry": { "type": "Point", "coordinates": [ 55.292300902850798, 25.0132441731079 ] } },
{ "type": "Feature", "properties": { "name": "Dubai Studio City", "id": 34, "elevation": 27.0, "discharge": 0.015046296296296295, "num_steps": 5 }, "geometry": { "type": "Point", "coordinates": [ 55.251466584312297, 25.042500683716099 ] } },
{ "type": "Feature", "properties": { "name": "Dubai Motor City", "id": 35, "elevation": 30.000049591064453, "discharge": 0.092592592592592587, "num_steps": 5 }, "geometry": { "type": "Point", "coordinates": [ 55.235869121553399, 25.047109972733502 ] } },
{ "type": "Feature", "properties": { "name": "Dubai Sports City", "id": 36, "elevation": 26.0, "discharge": 0.28935185185185186, "num_steps": 5 }, "geometry": { "type": "Point", "coordinates": [ 55.230080983980301, 25.035382902908498 ] } },
{ "type": "Feature", "properties": { "name": "Dubai Bio Technology", "id": 37, "elevation": 16.0, "discharge": 0.023148148148148147, "num_steps": 5 }, "geometry": { "type": "Point", "coordinates": [ 55.240900074686003, 25.074625470422699 ] } },
{ "type": "Feature", "properties": { "name": "Knowledge Village Universities", "id": 38, "elevation": 6.0, "discharge": 0.078703703703703706, "num_steps": 5 }, "geometry": { "type": "Point", "coordinates": [ 55.161153298992403, 25.1050940303959 ] } },
{ "type": "Feature", "properties": { "name": "International Media Production Zone", "id": 39, "elevation": 4.001276969909668, "discharge": 0.046296296296296294, "num_steps": 5 }, "geometry": { "type": "Point", "coordinates": [ 55.1850053965494, 25.022996114461598 ] } },
{ "type": "Feature", "properties": { "name": "Mafraq", "id": 40, "elevation": 38.0, "discharge": 3.9351851851851851, "num_steps": 5 }, "geometry": { "type": "Point", "coordinates": [ 54.607095822289203, 24.2704523048181 ] } },
{ "type": "Feature", "properties": { "name": "Al Wathba 1", "id": 41, "elevation": 38.000682830810547, "discharge": 3.4722222222222223, "num_steps": 5 }, "geometry": { "type": "Point", "coordinates": [ 54.607080152576899, 24.181067849520701 ] } },
{ "type": "Feature", "properties": { "name": "Al Wathba 2", "id": 42, "elevation": 40.0, "discharge": 3.4722222222222223, "num_steps": 5 }, "geometry": { "type": "Point", "coordinates": [ 54.601200750800302, 24.181968290795201 ] } },
{ "type": "Feature", "properties": { "name": "Saih Al Hamah", "id": 43, "elevation": 174.0, "discharge": 1.7303240740740742, "num_steps": 5 }, "geometry": { "type": "Point", "coordinates": [ 55.410819683860403, 23.9996594078412 ] } },
{ "type": "Feature", "properties": { "name": "Al Saad", "id": 44, "elevation": 192.0, "discharge": 1.0648148148148149, "num_steps": 5 }, "geometry": { "type": "Point", "coordinates": [ 55.464338079290798, 24.189161952271501 ] } },
{ "type": "Feature", "properties": { "name": "Al Ain ", "id": 45, "elevation": 309.0, "discharge": 0.97222222222222221, "num_steps": 5 }, "geometry": { "type": "Point", "coordinates": [ 55.805126998098601, 24.128545215245101 ] } },
{ "type": "Feature", "properties": { "name": "Ruwais ", "id": 46, "elevation": 49.0, "discharge": 0.1736111111111111, "num_steps": 5 }, "geometry": { "type": "Point", "coordinates": [ 52.830812151909797, 23.960786496128101 ] } },
{ "type": "Feature", "properties": { "name": "Masdar City", "id": 47, "elevation": 6.0, "discharge": 0.017361111111111112, "num_steps": 5 }, "geometry": { "type": "Point", "coordinates": [ 54.629130069512797, 24.431777468791001 ] } },
{ "type": "Feature", "properties": { "name": "Al Dhahira", "id": 48, "elevation": 219.0, "discharge": 0.0048611111111111112, "num_steps": 5 }, "geometry": { "type": "Point", "coordinates": [ 55.561875985245798, 24.003732278652201 ] } },
{ "type": "Feature", "properties": { "name": "Al Faqah", "id": 49, "elevation": 241.00007629394531, "discharge": 0.0081018518518518514, "num_steps": 5 }, "geometry": { "type": "Point", "coordinates": [ 55.6211245377281, 24.683524235306699 ] } },
{ "type": "Feature", "properties": { "name": "Al Haiar", "id": 50, "elevation": 295.0, "discharge": 0.079861111111111105, "num_steps": 5 }, "geometry": { "type": "Point", "coordinates": [ 55.730652801790001, 24.582035100890199 ] } },
{ "type": "Feature", "properties": { "name": "Al Khazna", "id": 51, "elevation": 147.00004577636719, "discharge": 0.023148148148148147, "num_steps": 5 }, "geometry": { "type": "Point", "coordinates": [ 55.127264810185203, 24.114559824710799 ] } },
{ "type": "Feature", "properties": { "name": "Al Qoaa", "id": 52, "elevation": 123.0, "discharge": 0.079861111111111105, "num_steps": 5 }, "geometry": { "type": "Point", "coordinates": [ 55.3557149098691, 23.407000229244399 ] } },
{ "type": "Feature", "properties": { "name": "Al waqan", "id": 53, "elevation": 176.0, "discharge": 0.022685185185185187, "num_steps": 5 }, "geometry": { "type": "Point", "coordinates": [ 55.448842182761801, 23.635998854442601 ] } },
{ "type": "Feature", "properties": { "name": "BuKeriayah", "id": 54, "elevation": 306.0, "discharge": 0.010416666666666666, "num_steps": 5 }, "geometry": { "type": "Point", "coordinates": [ 55.792172967238699, 24.139678329676698 ] } },
{ "type": "Feature", "properties": { "name": "Remah", "id": 55, "elevation": 162.00431823730469, "discharge": 0.017361111111111112, "num_steps": 5 }, "geometry": { "type": "Point", "coordinates": [ 55.301092840270499, 24.109022414964201 ] } },
{ "type": "Feature", "properties": { "name": "Seih Ghraba ", "id": 56, "elevation": 33.0, "discharge": 0.0048611111111111112, "num_steps": 5 }, "geometry": { "type": "Point", "coordinates": [ 54.997353997959998, 24.849150078888901 ] } },
{ "type": "Feature", "properties": { "name": "Al Shweib", "id": 57, "elevation": 277.0, "discharge": 0.015046296296296295, "num_steps": 5 }, "geometry": { "type": "Point", "coordinates": [ 55.788361529000703, 24.7472611414514 ] } },
{ "type": "Feature", "properties": { "name": "Sweihan", "id": 58, "elevation": 149.0, "discharge": 0.0075231481481481477, "num_steps": 5 }, "geometry": { "type": "Point", "coordinates": [ 55.332532627506403, 24.461976956953698 ] } },
{ "type": "Feature", "properties": { "name": "Wadi Fili", "id": 59, "elevation": 14.0, "discharge": 0.063657407407407413, "num_steps": 5 }, "geometry": { "type": "Point", "coordinates": [ 54.3712600798805, 24.497081136721398 ] } },
{ "type": "Feature", "properties": { "name": "Al Khatem", "id": 60, "elevation": 116.0, "discharge": 0.015914351851851853, "num_steps": 5 }, "geometry": { "type": "Point", "coordinates": [ 54.999038760096298, 24.182269811137001 ] } },
{ "type": "Feature", "properties": { "name": "Ghantout", "id": 61, "elevation": 4.000673770904541, "discharge": 0.0076620370370370366, "num_steps": 5 }, "geometry": { "type": "Point", "coordinates": [ 54.891928119346197, 24.887688483244499 ] } },
{ "type": "Feature", "properties": { "name": "Al Mirfaa", "id": 62, "elevation": 21.000099182128906, "discharge": 0.092592592592592587, "num_steps": 5 }, "geometry": { "type": "Point", "coordinates": [ 53.464601417019601, 24.038397162047598 ] } },
{ "type": "Feature", "properties": { "name": "Mifra CW", "id": 63, "elevation": 16.0, "discharge": 0.00023148148148148149, "num_steps": 5 }, "geometry": { "type": "Point", "coordinates": [ 53.412288743989102, 24.055035447729701 ] } },
{ "type": "Feature", "properties": { "name": "Mirfa Cans Factory", "id": 64, "elevation": 14.0, "discharge": 0.0069444444444444441, "num_steps": 5 }, "geometry": { "type": "Point", "coordinates": [ 53.412881053393697, 24.054018101316 ] } },
{ "type": "Feature", "properties": { "name": "Bainounah", "id": 65, "elevation": 24.0, "discharge": 0.011574074074074073, "num_steps": 5 }, "geometry": { "type": "Point", "coordinates": [ 52.945490017222802, 24.037179153344098 ] } },
{ "type": "Feature", "properties": { "name": "Madient Zaied", "id": 66, "elevation": 120.0, "discharge": 0.34722222222222221, "num_steps": 5 }, "geometry": { "type": "Point", "coordinates": [ 53.763368456673597, 23.615823977116001 ] } },
{ "type": "Feature", "properties": { "name": "Liwa", "id": 67, "elevation": 129.0484619140625, "discharge": 0.028935185185185185, "num_steps": 5 }, "geometry": { "type": "Point", "coordinates": [ 53.768392723509798, 23.085225311596801 ] } },
{ "type": "Feature", "properties": { "name": "Abu Al Abyad Island", "id": 68, "elevation": 3.0034811496734619, "discharge": 0.0007291666666666667, "num_steps": 5 }, "geometry": { "type": "Point", "coordinates": [ 53.807911908971903, 24.2348534927483 ] } },
{ "type": "Feature", "properties": { "name": "Sir Bani Yas Island", "id": 69, "elevation": 93.0, "discharge": 0.00055555555555555556, "num_steps": 5 }, "geometry": { "type": "Point", "coordinates": [ 52.595742187157597, 24.315694637834302 ] } },
{ "type": "Feature", "properties": { "name": "Ghuwaifat", "id": 70, "elevation": 48.000171661376953, "discharge": 0.0026041666666666665, "num_steps": 5 }, "geometry": { "type": "Point", "coordinates": [ 51.633690716529699, 24.133466425396001 ] } },
{ "type": "Feature", "properties": { "name": "Ghayathi", "id": 71, "elevation": 44.0, "discharge": 0.028935185185185185, "num_steps": 5 }, "geometry": { "type": "Point", "coordinates": [ 52.830157952360203, 23.960522080192401 ] } },
{ "type": "Feature", "properties": { "name": "Delma", "id": 72, "elevation": 48.0001220703125, "discharge": 0.034722222222222224, "num_steps": 5 }, "geometry": { "type": "Point", "coordinates": [ 52.313071745488898, 24.5017448472091 ] } },
{ "type": "Feature", "properties": { "name": "Baaya-Sila", "id": 73, "elevation": 40.0, "discharge": 0.11574074074074074, "num_steps": 5 }, "geometry": { "type": "Point", "coordinates": [ 51.726372294461903, 24.097057650562402 ] } },
{ "type": "Feature", "properties": { "name": "Baaya Sila Power Station ", "id": 74, "elevation": 42.001491546630859, "discharge": 0.00028935185185185184, "num_steps": 5 }, "geometry": { "type": "Point", "coordinates": [ 51.760839159021302, 24.064561079555698 ] } },
{ "type": "Feature", "properties": { "name": "Tilal Liwa ", "id": 75, "elevation": 143.0, "discharge": 0.001736111111111111, "num_steps": 5 }, "geometry": { "type": "Point", "coordinates": [ 53.8007680813325, 23.5341151037934 ] } },
{ "type": "Feature", "properties": { "name": "Razeen Workers City", "id": 76, "elevation": 54.0, "discharge": 0.046296296296296294, "num_steps": 5 }, "geometry": { "type": "Point", "coordinates": [ 54.758529960069801, 24.219427829464301 ] } },
{ "type": "Feature", "properties": { "name": "Bad' Al Mutaw'ah", "id": 77, "elevation": 64.000259399414062, "discharge": 0.0092592592592592587, "num_steps": 5 }, "geometry": { "type": "Point", "coordinates": [ 52.570499007748197, 23.785399574751299 ] } },
{ "type": "Feature", "properties": { "name": "Al Rawada", "id": 78, "elevation": 4.0001411437988281, "discharge": 0.00081018518518518516, "num_steps": 5 }, "geometry": { "type": "Point", "coordinates": [ 54.444123412910301, 24.420644366484101 ] } },
{ "type": "Feature", "properties": { "name": "Al Ghadeer ", "id": 79, "elevation": 32.0, "discharge": 0.017361111111111112, "num_steps": 5 }, "geometry": { "type": "Point", "coordinates": [ 55.0257342153877, 24.842707540231402 ] } },
{ "type": "Feature", "properties": { "name": "Yas Island", "id": 80, "elevation": 5.0, "discharge": 0.43981481481481483, "num_steps": 5 }, "geometry": { "type": "Point", "coordinates": [ 54.602456329672798, 24.496925948865599 ] } },
{ "type": "Feature", "properties": { "name": "Saadiyat", "id": 81, "elevation": 5.0, "discharge": 0.19097222222222221, "num_steps": 5 }, "geometry": { "type": "Point", "coordinates": [ 54.453312596884402, 24.5469012944219 ] } },
{ "type": "Feature", "properties": { "name": "Al Ruwais Housing Complex", "id": 82, "elevation": 24.004106521606445, "discharge": 0.39699074074074076, "num_steps": 5 }, "geometry": { "type": "Point", "coordinates": [ 52.667227030367101, 24.055180476810001 ] } },
{ "type": "Feature", "properties": { "name": "AL REEF PALACE", "id": 83, "elevation": 27.0, "discharge": 0.0028935185185185184, "num_steps": 5 }, "geometry": { "type": "Point", "coordinates": [ 54.682840478305003, 24.440798707302299 ] } },
{ "type": "Feature", "properties": { "name": "Mafraq Labor Camp STP", "id": 84, "elevation": 18.002998352050781, "discharge": 0.34722222222222221, "num_steps": 5 }, "geometry": { "type": "Point", "coordinates": [ 54.6287333297117, 24.258770824693201 ] } }
]
}
